{
  "BANG": {
    "icao": "",
    "iata": "BKK",
    "name": "BKK-DMK",
    "city": "Bangkok",
    "state": "Thailand",
    "country": "TH",
    "elevation": 0,
    "lat": 0.0,
    "lon": 0.0,
    "tz": "Asia/Bangkok"
  },
  "BEIJ": {
    "icao": "",
    "iata": "BJS",
    "name": "PEK-PKX-NAY",
    "city": "Beijing",
    "state": "Beijing",
    "country": "CN",
    "elevation": 0,
    "lat": 0.0,
    "lon": 0.0,
    "tz": "Asia/Shanghai"
  },
  "OSAK": {
    "icao": "",
    "iata": "OSA",
    "name": "KIX-ITM-UKB",
    "city": "Osaka",
    "state": "Osaka",
    "country": "JP",
    "elevation": 0,
    "lat": 0.0,
    "lon": 0.0,
    "tz": "Asia/Tokyo"
  },
  "SAPP": {
    "icao": "",
    "iata": "SPK",
    "name": "CTS-OKD",
    "city": "Sapporo",
    "state": "Hokkaido",
    "country": "JP",
    "elevation": 0,
    "lat": 0.0,
    "lon": 0.0,
    "tz": "Asia/Tokyo"
  },
  "SEOU": {
    "icao": "",
    "iata": "SEL",
    "name": "ICN-GMP",
    "city": "Seoul",
    "state": "Seoul",
    "country": "KR",
    "elevation": 0,
    "lat": 0.0,
    "lon": 0.0,
    "tz": "Asia/Seoul"
  },
  "SHAN": {
    "icao": "",
    "iata": "SHA",
    "name": "SHA-PVG",
    "city": "Shanghai",
    "state": "Shanghai",
    "country": "CN",
    "elevation": 0,
    "lat": 0.0,
    "lon": 0.0,
    "tz": "Asia/Shanghai"
  },
  "TOKY": {
    "icao": "",
    "iata": "TYO",
    "name": "NRT-HND",
    "city": "Tokyo",
    "state": "Tokyo",
    "country": "JP",
    "elevation": 0,
    "lat": 0.0,
    "lon": 0.0,
    "tz": "Asia/Tokyo"
  },
  "JAKA": {
    "icao": "",
    "iata": "JKT",
    "name": "CGK-HLP",
    "city": "Jakarta",
    "state": "Jakarta",
    "country": "ID",
    "elevation": 0,
    "lat": 0.0,
    "lon": 0.0,
    "tz": "Asia/Jakarta"
  },
  "MELB": {
    "icao": "",
    "iata": "MEL",
    "name": "MEL-AVV-MEB",
    "city": "Melbourne",
    "state": "Victoria",
    "country": "AU",
    "elevation": 0,
    "lat": 0.0,
    "lon": 0.0,
    "tz": "Australia/Melbourne"
  },
  "BERL": {
    "icao": "",
    "iata": "BER",
    "name": "BER",
    "city": "Berlin",
    "state": "",
    "country": "DE",
    "elevation": 0,
    "lat": 0.0,
    "lon": 0.0,
    "tz": "Europe/Berlin"
  },
  "BUCH": {
    "icao": "",
    "iata": "BUH",
    "name": "BUH-OTP-BBU",
    "city": "Bucharest",
    "state": "",
    "country": "RO",
    "elevation": 0,
    "lat": 0.0,
    "lon": 0.0,
    "tz": "Europe/Bucharest"
  },
  "BRUS": {
    "icao": "",
    "iata": "BRU",
    "name": "BRU-CRL",
    "city": "Brussels",
    "state": "",
    "country": "BE",
    "elevation": 0,
    "lat": 0.0,
    "lon": 0.0,
    "tz": "Europe/Brussels"
  },
  "LOND": {
    "icao": "",
    "iata": "LON",
    "name": "BQH-LCY-LGW-LTN-LHR-SEN-STN",
    "city": "London",
    "state": "England",
    "country": "GB",
    "elevation": 0,
    "lat": 0.0,
    "lon": 0.0,
    "tz": "Europe/London"
  },
  "MILA": {
    "icao": "",
    "iata": "MIL",
    "name": "BGY-MXP-LIN-PMF",
    "city": "Milan",
    "state": "",
    "country": "IT",
    "elevation": 0,
    "lat": 0.0,
    "lon": 0.0,
    "tz": "Europe/Rome"
  },
  "MOSC": {
    "icao": "",
    "iata": "MOW",
    "name": "SVO-DME-VKO-BKA",
    "city": "Moscow",
    "state": "",
    "country": "RU",
    "elevation": 0,
    "lat": 0.0,
    "lon": 0.0,
    "tz": "Europe/Moscow"
  },
  "OSLO": {
    "icao": "",
    "iata": "OSL",
    "name": "OSL-TRF-RYG",
    "city": "Oslo",
    "state": "",
    "country": "NO",
    "elevation": 0,
    "lat": 0.0,
    "lon": 0.0,
    "tz": "Europe/Oslo"
  },
  "PAR": {
    "icao": "",
    "iata": "PAR",
    "name": "CDG-ORY-LBG",
    "city": "Paris",
    "state": "",
    "country": "FR",
    "elevation": 0,
    "lat": 0.0,
    "lon": 0.0,
    "tz": "Europe/Paris"
  },
  "REYK": {
    "icao": "",
    "iata": "REK",
    "name": "KEF-RKV",
    "city": "Reykjavik",
    "state": "",
    "country": "IS",
    "elevation": 0,
    "lat": 0.0,
    "lon": 0.0,
    "tz": "Atlantic/Reykjavik"
  },
  "ROME": {
    "icao": "",
    "iata": "ROM",
    "name": "FCO-CIA",
    "city": "Rome",
    "state": "",
    "country": "IT",
    "elevation": 0,
    "lat": 0.0,
    "lon": 0.0,
    "tz": "Europe/Rome"
  },
  "STOC": {
    "icao": "",
    "iata": "STO",
    "name": "ARN-NYO-BMA-VST-GOT",
    "city": "Stockholm",
    "state": "",
    "country": "SE",
    "elevation": 0,
    "lat": 0.0,
    "lon": 0.0,
    "tz": "Europe/Stockholm"
  },
  "TENE": {
    "icao": "",
    "iata": "TCI",
    "name": "TFN-TFS",
    "city": "Tenerife",
    "state": "",
    "country": "ES",
    "elevation": 0,
    "lat": 0.0,
    "lon": 0.0,
    "tz": "Atlantic/Canary"
  },
  "CHIC": {
    "icao": "",
    "iata": "CHI",
    "name": "ORD-MDW-RFD",
    "city": "Chicago",
    "state": "United States of America",
    "country": "US",
    "elevation": 0,
    "lat": 0.0,
    "lon": 0.0,
    "tz": "America/Chicago"
  },
  "DALL": {
    "icao": "",
    "iata": "QDF",
    "name": "DAL-DFW",
    "city": "Dallas",
    "state": "United States of America",
    "country": "US",
    "elevation": 0,
    "lat": 0.0,
    "lon": 0.0,
    "tz": "America/Chicago"
  },
  "DETR": {
    "icao": "",
    "iata": "DTT",
    "name": "DTW-DET-YIP",
    "city": "Detroit",
    "state": "United States of America",
    "country": "US",
    "elevation": 0,
    "lat": 0.0,
    "lon": 0.0,
    "tz": "America/Detroit"
  },
  "EDMO": {
    "icao": "",
    "iata": "YEA",
    "name": "YEG",
    "city": "Edmonton",
    "state": "Canada",
    "country": "CA",
    "elevation": 0,
    "lat": 0.0,
    "lon": 0.0,
    "tz": "America/Edmonton"
  },
  "HOUS": {
    "icao": "",
    "iata": "QHO",
    "name": "IAH-HOU",
    "city": "Houston",
    "state": "United States of America",
    "country": "US",
    "elevation": 0,
    "lat": 0.0,
    "lon": 0.0,
    "tz": "America/Houston"
  },
  "LOSA": {
    "icao": "",
    "iata": "LAX",
    "name": "LAX",
    "city": "Los Angeles",
    "state": "United States of America",
    "country": "US",
    "elevation": 0,
    "lat": 0.0,
    "lon": 0.0,
    "tz": "America/Los_Angeles"
  },
  "MIAM": {
    "icao": "",
    "iata": "QMI",
    "name": "MIA-FLL-PBI",
    "city": "Miami",
    "state": "United States of America",
    "country": "US",
    "elevation": 0,
    "lat": 0.0,
    "lon": 0.0,
    "tz": "America/Miami"
  },
  "MONT": {
    "icao": "",
    "iata": "YMQ",
    "name": "YUL-YMY",
    "city": "Montreal",
    "state": "Canada",
    "country": "CA",
    "elevation": 0,
    "lat": 0.0,
    "lon": 0.0,
    "tz": "America/Montreal"
  },
  "NEWY": {
    "icao": "",
    "iata": "NYC",
    "name": "JFK-EWR-LGA-HPN",
    "city": "New York City",
    "state": "United States of America",
    "country": "US",
    "elevation": 0,
    "lat": 0.0,
    "lon": 0.0,
    "tz": "America/New_York"
  },
  "SEAT": {
    "icao": "",
    "iata": "SEA",
    "name": "SEA-BFI-LKE-PAE",
    "city": "Seattle",
    "state": "United States of America",
    "country": "US",
    "elevation": 0,
    "lat": 0.0,
    "lon": 0.0,
    "tz": "America/Los_Angeles"
  },
  "TORO": {
    "icao": "",
    "iata": "YTO",
    "name": "YYZ-YTZ-YKF",
    "city": "Toronto",
    "state": "Canada",
    "country": "CA",
    "elevation": 0,
    "lat": 0.0,
    "lon": 0.0,
    "tz": "America/Toronto"
  },
  "WASH": {
    "icao": "",
    "iata": "WAS",
    "name": "IAD-DCA-BWI",
    "city": "Washington DC",
    "state": "United States of America",
    "country": "US",
    "elevation": 0,
    "lat": 0.0,
    "lon": 0.0,
    "tz": "America/New_York"
  },
  "BELO": {
    "icao": "",
    "iata": "BHZ",
    "name": "CNF-PLU",
    "city": "Belo Horizonte",
    "state": "Brazil",
    "country": "BR",
    "elevation": 0,
    "lat": 0.0,
    "lon": 0.0,
    "tz": "America/Sao_Paulo"
  },
  "BUEN": {
    "icao": "",
    "iata": "BUE",
    "name": "EZE-AEP",
    "city": "Buenos Aires",
    "state": "Argentina",
    "country": "AR",
    "elevation": 0,
    "lat": 0.0,
    "lon": 0.0,
    "tz": "America/Argentina/Buenos_Aires"
  },
  "RIOD": {
    "icao": "",
    "iata": "RIO",
    "name": "GIG-SDU",
    "city": "Rio de Janeiro",
    "state": "Brazil",
    "country": "BR",
    "elevation": 0,
    "lat": 0.0,
    "lon": 0.0,
    "tz": "America/Sao_Paulo"
  },
  "SAOP": {
    "icao": "",
    "iata": "SAO",
    "name": "GRU-CGH-VCP",
    "city": "SÃ£o Paulo",
    "state": "Brazil",
    "country": "BR",
    "elevation": 0,
    "lat": 0.0,
    "lon": 0.0,
    "tz": "America/Sao_Paulo"
  }
}
